     2.11           OBSERVATION DATA    M                   RINEX VERSION / TYPE
Spider v7.5.1.8670  SMO                 2021 10 14 13:09    PGM / RUN BY / DATE 
HKSC                                                        MARKER NAME         
23014M001                                                   MARKER NUMBER       
SMO                 Lands Department HKSAR                  OBSERVER / AGENCY   
1870254             LEICA GR50          4.50/7.710          REC # / TYPE / VERS 
725196              LEIAR25.R4      LEIT                    ANT # / TYPE        
 -2414266.9197  5386768.9868  2407460.0314                  APPROX POSITION XYZ 
        0.0083        0.0000        0.0000                  ANTENNA: DELTA H/E/N
     1     1                                                WAVELENGTH FACT L1/2
     6    C1    L1    P2    L2    C5    L5                  # / TYPES OF OBSERV 
     5.000                                                  INTERVAL            
  2021    10    14    12    00    0.0000000     GPS         TIME OF FIRST OBS   
  2021    10    14    12    59   55.0000000     GPS         TIME OF LAST OBS    
    18                                                      LEAP SECONDS        
    22                                                      # OF SATELLITES     
   G 3   720   720   720   720   720   720                  PRN / # OF OBS      
   G 4   720   720   720   720   720   720                  PRN / # OF OBS      
   G 8   696   695   695   695   696   696                  PRN / # OF OBS      
   G 9   129   128   128   128   129   129                  PRN / # OF OBS      
   G16   720   720   720   720     0     0                  PRN / # OF OBS      
   G18    91    76    77    71    97    97                  PRN / # OF OBS      
   G22   720   720   720   720     0     0                  PRN / # OF OBS      
   G26   720   720   720   720   720   720                  PRN / # OF OBS      
   G27   720   720   720   720   720   720                  PRN / # OF OBS      
   G29   284   279   280   279     0     0                  PRN / # OF OBS      
   G31   720   720   720   720     0     0                  PRN / # OF OBS      
   G32   720   720   720   720   719   719                  PRN / # OF OBS      
   R 2   349   345   331   312     0     0                  PRN / # OF OBS      
   R 3   720   720   720   720     0     0                  PRN / # OF OBS      
   R 4   720   720   720   720     0     0                  PRN / # OF OBS      
   R 5   651   651   648   648     0     0                  PRN / # OF OBS      
   R13   720   713   720   714     0     0                  PRN / # OF OBS      
   R14   720   720   720   720     0     0                  PRN / # OF OBS      
   R15   720   720   720   720     0     0                  PRN / # OF OBS      
   R17   470   453   455   397     0     0                  PRN / # OF OBS      
   R23   720   720     0     0     0     0                  PRN / # OF OBS      
   R24   720   720   720   720     0     0                  PRN / # OF OBS      
BIT 2 OF LLI FLAGS DATA COLLECTED UNDER A/S CONDITION       COMMENT             
SNR is mapped to RINEX snr flag value [1-9]                 COMMENT             
LX:    >= 25dBHz -> 1; 26-27dBHz -> 2; 28-31dBHz -> 3       COMMENT             
       32-35dBHz -> 4; 36-38dBHz -> 5; 39-41dBHz -> 6       COMMENT             
       42-44dBHz -> 7; 45-48dBHz -> 8; >= 49dBHz -> 9       COMMENT             
                                                            END OF HEADER       
 21 10 14 12 00  0.0000000  0 17G03G04G16G22G26G27G29G31G32R02R03R04
                                R13R14R15R23R24
  23147534.060   121641108.10708  23147535.700    94785287.99448  23147535.880  
  90835937.88608
  24062639.280   126450039.00607  24062639.660    98532508.40845  24062642.500  
  94426996.77807
  20647310.320   108502487.16809  20647308.740    84547415.97848                
                
  23274312.100   122307362.05108  23274309.460    95304446.35847                
                
  20525760.540   107863790.98209  20525762.280    84049759.71449  20525761.000  
  80547685.51309
  23017388.720   120957225.64208  23017393.640    94252419.49848  23017393.720  
  90325223.95508
  24731051.260   129962761.43807  24731050.140   101269783.80345                
                
  21991379.560   115565657.02409  21991377.820    90051227.70748                
                
  22452744.640   117990119.20009  22452747.880    91940438.00549  22452747.500  
  88109563.82608
  22576576.580   120472920.08908  22576583.640    93701166.22206                
                
  19550932.360   104657705.31809  19550932.940    81400477.01808                
                
  20552689.600   110058748.29709  20552689.700    85601261.02008                
                
  22133570.440   118192027.08505  22133571.820    91927138.01305                
                
  20841410.860   111096615.07009  20841413.180    86408524.74808                
                
  23052530.300   123185825.73608  23052534.060    95811264.37306                
                
  22804925.660   121991080.49108                                                
                
  22986993.220   122921777.30508  22987000.320    95605882.80806                
                
 21 10 14 12 00  5.0000000  0 17G03G04G16G22G26G27G29G31G32R02R03R04
                                R13R14R15R23R24
  23147774.900   121642373.80408  23147776.600    94786274.29648  23147776.700  
  90836883.04108
  24059450.320   126433281.10807  24059450.720    98519450.36346  24059453.560  
  94414482.78207
  20646336.080   108497367.71309  20646334.580    84543426.84948                
                
  23275361.480   122312876.48308  23275358.860    95308743.35146                
                
  20527068.760   107870665.94309  20527070.540    84055116.87549  20527069.260  
  80552819.41609
  23013990.980   120939370.43208  23013995.900    94238506.43248  23013995.940  
  90311890.54808
  24733289.600   129974524.02807  24733288.500   101278949.50145                
                
  21992193.000   115569931.76409  21992191.320    90054558.72547                
                
  22455432.940   118004246.29409  22455436.200    91951446.16449  22455435.820  
  88120113.25508
  22580631.880   120494559.78408  22580638.900    93717997.11906                
                
  19552634.520   104666817.16409  19552635.100    81407564.05008                
                
  20550625.480   110047695.11109  20550625.620    85592664.15608                
                
  22135510.800   118202388.91805  22135512.240    91935197.25005                
                
  20841755.240   111098450.69709  20841757.560    86409952.50207                
                
  23051185.560   123178640.01108  23051189.280    95805675.57205                
                
  22803548.360   121983712.87308                                                
                
  22984271.880   122907225.38708  22984279.020    95594564.75205                
                
 21 10 14 12 00 10.0000000  0 17G03G04G16G22G26G27G29G31G32R02R03R04
                                R13R14R15R23R24
  23148018.300   121643652.99007  23148020.040    94787271.03547  23148020.120  
  90837838.25908
  24056261.800   126416525.27007  24056262.200    98506393.84146  24056265.000  
  94401970.29407
  20645364.540   108492262.22208  20645363.020    84539448.52348                
                
  23276412.520   122318399.69108  23276409.920    95313047.12147                
                
  20528378.660   107877549.67409  20528380.460    84060480.80549  20528379.180  
  80557959.86309
  23010593.840   120921518.38808  23010598.740    94224595.77148  23010598.760  
  90298559.52408
  24735530.060   129986297.84807  24735528.940   101288123.88446                
                
  21993006.800   115574208.23608  21993005.100    90057891.01648                
                
  22458123.100   118018383.01909  22458126.340    91962461.75649  22458125.980  
  88130669.87408
  22584688.040   120516204.09008  22584695.000    93734831.53707                
                
  19554340.500   104675949.58309  19554341.100    81414667.02308                
                
  20548564.900   110036660.90809  20548565.080    85584081.98208                
                
  22137450.780   118212748.36505  22137452.220    91943254.58805                
                
  20842100.360   111100290.42609  20842102.700    86411383.38608                
                
  23049841.960   123171460.69008  23049845.680    95800091.67206                
                
  22802173.760   121976359.56408                                                
                
  22981551.100   122892676.36208  22981558.180    95583248.87506                
                
 21 10 14 12 00 15.0000000  0 17G03G04G16G22G26G27G29G31G32R02R03R04
                                R13R14R15R23R24
  23148264.400   121644946.19307  23148266.140    94788278.72347  23148266.220  
  90838803.96108
  24053073.720   126399771.94307  24053074.120    98493339.30746  24053076.940  
  94389459.70307
  20644395.740   108487171.16808  20644394.200    84535481.47548                
                
  23277465.320   122323932.19708  23277462.740    95317358.15547                
                
  20529690.320   107884442.67808  20529692.160    84065851.98148  20529690.860  
  80563107.23809
  23007197.400   120903670.05508  23007202.300    94210688.01148  23007202.360  
  90285231.26308
  24737772.760   129998083.37706  24737771.680   101297307.42146                
                
  21993821.020   115578486.97508  21993819.320    90061225.09648                
                
  22460815.160   118032529.86108  22460818.420    91973485.25548  22460818.060  
  88141234.05008
  22588745.120   120537853.29108  22588752.060    93751669.78607                
                
  19556050.480   104685103.19109  19556051.080    81421786.49708                
                
  20546507.980   110025646.26209  20546508.180    85575515.04108                
                
  22139390.420   118223105.83305  22139391.840    91951310.40705                
                
  20842446.360   111102134.76309  20842448.720    86412817.87808                
                
  23048499.680   123164288.25508  23048503.440    95794513.16106                
                
  22800801.900   121969020.95808                                                
                
  22978830.920   122878130.73608  22978837.980    95571935.66806                
                
 21 10 14 12 00 20.0000000  0 17G03G04G16G22G26G27G29G31G32R02R03R04
                                R13R14R15R23R24
  23148512.820   121646251.92007  23148514.620    94789296.17848  23148514.700  
  90839779.01908
  24049885.840   126383019.65507  24049886.260    98480285.57346  24049889.060  
  94376949.88907
  20643429.400   108482093.10308  20643427.860    84531524.54848                
                
  23278519.620   122329472.47608  23278517.060    95321675.22847                
                
  20531003.460   107891343.43608  20531005.300    84071229.19148  20531004.020  
  80568260.40309
  23003801.380   120885823.94408  23003806.280    94196781.97548  23003806.360  
  90271904.64808
  24740017.420   130009879.12407  24740016.460   101306498.89546                
                
  21994635.380   115582766.44009  21994633.660    90064559.74248                
                
  22463508.880   118046685.32409  22463512.120    91984515.45949  22463511.780  
  88151804.66208
  22592802.960   120559506.30508  22592809.880    93768510.99106                
                
  19557764.080   104694276.39509  19557764.700    81428921.19808                
                
  20544454.480   110014649.64809  20544454.640    85566962.10708                
                
  22141329.400   118233459.96305  22141330.840    91959363.60905                
                
  20842792.920   111103982.20109  20842795.300    86414254.76208                
                
  23047158.460   123157121.13908  23047162.180    95788938.75006                
                
  22799432.520   121961695.57008                                                
                
  22976111.140   122863587.14908  22976118.200    95560624.02506                
                
 21 10 14 12 00 25.0000000  0 17G03G04G16G22G26G27G29G31G32R02R03R04
                                R13R14R15R23R24
  23148763.800   121647570.75007  23148765.600    94790323.81547  23148765.680  
  90840763.86508
  24046698.300   126366269.08007  24046698.740    98467233.14246  24046701.500  
  94364441.33607
  20642465.640   108477028.63408  20642464.100    84527578.18848                
                
  23279575.520   122335021.08408  23279572.940    95325998.78647                
                
  20532318.200   107898252.54308  20532320.040    84076612.89048  20532318.760  
  80573419.80609
  23000405.900   120867980.67008  23000410.780    94182878.14048  23000410.880  
  90258580.17408
  24742264.160   130021685.65107  24742263.220   101315698.77046                
                
  21995450.000   115587047.35208  21995448.280    90067895.49748                
                
  22466204.360   118060849.99609  22466207.560    91995552.82349  22466207.260  
  88162382.16408
  22596861.500   120581163.46908  22596868.460    93785355.39906                
                
  19559481.460   104703469.73409  19559482.100    81436071.55008                
                
  20542404.460   110003671.66809  20542404.600    85558423.65208                
                
  22143267.900   118243811.31405  22143269.320    91967414.63305                
                
  20843140.200   111105833.44909  20843142.600    86415694.60308                
                
  23045818.320   123149960.02708  23045822.080    95783369.00406                
                
  22798065.740   121954384.18908                                                
                
  22973391.880   122849046.15108  22973398.880    95549314.37206                
                
 21 10 14 12 00 30.0000000  0 17G03G04G16G22G26G27G29G31G32R02R03R04
                                R13R14R15R23R24
  23149017.080   121648901.80607  23149018.960    94791361.00647  23149018.980  
  90841757.83208
  24043510.940   126349519.28207  24043511.360    98454181.36846  24043514.100  
  94351933.35507
  20641504.300   108471976.80308  20641502.780    84523641.71648                
                
  23280632.820   122340577.16008  23280630.240    95330328.19447                
                
  20533634.340   107905169.10308  20533636.220    84082002.43248  20533634.900  
  80578584.77109
  22997010.780   120850139.35508  22997015.640    94168975.86548  22997015.740  
  90245257.14908
  24744512.760   130033502.08207  24744511.800   101324906.39346                
                
  21996264.720   115591328.70508  21996263.000    90071231.63148                
                
  22468901.400   118075023.00609  22468904.640    92006596.72449  22468904.340  
  88172965.88108
  22600920.500   120602823.20408  22600927.520    93802201.83507                
                
  19561202.400   104712682.29109  19561203.100    81443236.88208                
                
  20540357.740   109992711.45209  20540357.860    85549899.05908                
                
  22145205.700   118254159.03705  22145207.040    91975462.87605                
                
  20843487.980   111107687.47709  20843490.420    86417136.63908                
                
  23044479.120   123142803.99408  23044482.980    95777803.23606                
                
  22796701.360   121947085.73208                                                
                
  22970672.900   122834506.82708  22970679.900    95538006.07506                
                
 21 10 14 12 00 35.0000000  0 17G03G04G16G22G26G27G29G31G32R02R03R04
                                R13R14R15R23R24
  23149273.120   121650247.41007  23149275.080    94792409.52747  23149275.080  
  90842762.67408
  24040324.120   126332772.61907  24040324.560    98441132.02146  24040327.300  
  94339427.75207
  20640545.820   108466940.04308  20640544.300    84519716.97748                
                
  23281691.980   122346142.99608  23281689.400    95334665.20147                
                
  20534952.320   107912095.45508  20534954.240    84087399.59149  20534952.920  
  80583757.04909
  22993616.480   120832302.37208  22993621.340    94155076.95248  22993621.440  
  90231937.37008
  24746763.660   130045330.75907  24746762.740   101334123.55146                
                
  21997079.980   115595612.90708  21997078.220    90074569.96648                
                
  22471600.480   118089206.67209  22471603.720    92017648.91449  22471603.420  
  88183557.55608
  22604980.680   120624488.94708  22604987.720    93819052.94607                
                
  19562927.420   104721916.55209  19562928.140    81450419.07908                
                
  20538314.780   109981771.41909  20538314.880    85541390.14408                
                
  22147143.220   118264505.42705  22147144.520    91983510.07905                
                
  20843836.740   111109546.70309  20843839.200    86418582.70408                
                
  23043141.400   123135655.40008  23043145.280    95772243.25006                
                
  22795339.900   121939802.74808                                                
                
  22967954.760   122819971.77508  22967961.700    95526701.07406                
                
 21 10 14 12 00 40.0000000  0 17G03G04G16G22G26G27G29G31G32R02R03R04
                                R13R14R15R23R24
  23149531.620   121651605.78907  23149533.660    94793468.02448  23149533.600  
  90843777.02508
  24037137.580   126316027.30707  24037138.020    98428083.75046  24037140.740  
  94326923.14907
  20639589.860   108461916.42908  20639588.340    84515802.49348                
                
  23282752.680   122351716.83108  23282750.060    95339008.44947                
                
  20536271.840   107919029.77108  20536273.780    84092802.97948  20536272.460  
  80588935.27809
  22990222.680   120814467.92708  22990227.560    94141180.03348  22990227.660  
  90218619.47108
  24749016.560   130057169.88107  24749015.660   101343348.84346                
                
  21997895.440   115599898.10208  21997893.640    90077909.09748                
                
  22474301.240   118103399.17809  22474304.480    92028708.00549  22474304.180  
  88194155.83608
  22609041.580   120646158.30108  22609048.640    93835906.89407                
                
  19564656.160   104731170.69109  19564656.880    81457616.76408                
                
  20536275.200   109970849.74009  20536275.340    85532895.54308                
                
  22149080.180   118274848.71705  22149081.420    91991554.89405                
                
  20844186.160   111111409.29209  20844188.620    86420031.42008                
                
  23041804.640   123128512.30408  23041808.620    95766687.56706                
                
  22793981.000   121932533.37308                                                
                
  22965237.020   122805438.93408  22965243.940    95515397.84106                
                
 21 10 14 12 00 45.0000000  0 17G03G04G16G22G26G27G29G31G32R02R03R04
                                R13R14R15R23R24
  23149792.620   121652977.34108  23149794.700    94794536.70648  23149794.660  
  90844801.24308
  24033951.380   126299283.81507  24033951.800    98415036.82446  24033954.560  
  94314419.89607
  20638636.500   108456906.49908  20638634.960    84511898.60248                
                
  23283814.960   122357299.12408  23283812.360    95343358.23047                
                
  20537592.980   107925972.51408  20537594.880    84098212.85148  20537593.600  
  80594119.79209
  22986829.440   120796636.48008  22986834.300    94127285.37948  22986834.440  
  90205303.83608
  24751271.520   130069019.90007  24751270.680   101352582.56446                
                
  21998711.160   115604184.75808  21998709.360    90081249.29148                
                
  22477003.760   118117600.97409  22477007.000    92039774.27849  22477006.720  
  88204761.05408
  22613103.200   120667831.78208  22613110.320    93852763.96107                
                
  19566388.640   104740445.00409  19566389.380    81464830.05608                
                
  20534239.160   109959946.81909  20534239.280    85524415.43508                
                
  22151016.660   118285189.36705  22151017.840    91999597.55905                
                
  20844536.300   111113275.76509  20844538.740    86421483.06008                
                
  23040469.060   123121375.30208  23040473.040    95761136.54106                
                
  22792624.680   121925277.96508                                                
                
  22962519.800   122790908.99408  22962526.620    95504096.76606                
                
 21 10 14 12 00 50.0000000  0 17G03G04G16G22G26G27G29G31G32R02R03R04
                                R13R14R15R23R24
  23150056.180   121654362.28908  23150058.300    94795615.91448  23150058.240  
  90845835.44208
  24030765.600   126282542.34907  24030765.980    98401991.56746  24030768.740  
  94301918.15007
  20637685.780   108451910.37109  20637684.220    84508005.55248                
                
  23284878.920   122362890.18508  23284876.340    95347714.91547                
                
  20538915.760   107932923.85608  20538917.660    84103629.50848  20538916.380  
  80599310.72909
  22983436.800   120778808.24208  22983441.660    94113393.30748  22983441.800  
  90191990.57208
  24753528.620   130080880.96107  24753527.740   101361824.96446                
                
  21999527.180   115608473.06909  21999525.380    90084590.85948                
                
  22479708.060   118131812.25309  22479711.320    92050848.00849  22479711.060  
  88215373.34708
  22617165.620   120689509.55608  22617172.820    93869624.43907                
                
  19568125.000   104749739.82409  19568125.740    81472059.37708                
                
  20532206.680   109949062.93009  20532206.780    85515950.21108                
                
  22152952.620   118295527.45105  22152953.800    92007638.31805                
                
  20844887.180   111115146.15809  20844889.620    86422937.84408                
                
  23039134.660   123114244.54208  23039138.600    95755590.44606                
                
  22791271.000   121918036.81808                                                
                
  22959803.140   122776381.88808  22959809.840    95492797.97506                
                
 21 10 14 12 00 55.0000000  0 17G03G04G16G22G26G27G29G31G32R02R03R04
                                R13R14R15R23R24
  23150322.240   121655760.23708  23150324.340    94796705.21348  23150324.320  
  90846879.36408
  24027580.120   126265802.56007  24027580.420    98388947.57746  24027583.240  
  94289417.65607
  20636737.620   108446927.73809  20636736.040    84504122.98548                
                
  23285944.420   122368489.47808  23285941.860    95352077.99247                
                
  20540240.100   107939883.42008  20540242.000    84109052.54948  20540240.720  
  80604507.80809
  22980044.740   120760982.88308  22980049.560    94099503.45148  22980049.700  
  90178679.46508
  24755787.740   130092752.69107  24755786.820   101371075.68546                
                
  22000343.460   115612762.68908  22000341.660    90087933.42248                
                
  22482414.120   118146032.62609  22482417.380    92061928.80249  22482417.120  
  88225992.44508
  22621228.820   120711191.31408  22621236.040    93886488.00607                
                
  19569865.060   104759054.53309  19569865.820    81479304.15508                
                
  20530177.700   109938197.63609  20530177.760    85507499.42908                
                
  22154888.120   118305862.65405  22154889.140    92015676.81605                
                
  20845238.720   111117020.09309  20845241.160    86424395.35508                
                
  23037801.320   123107119.70108  23037805.240    95750048.93106                
                
  22789919.920   121910809.60908                                                
                
  22957086.940   122761857.60908  22957093.600    95481501.37306                
                
 21 10 14 12 01  0.0000000  0 17G03G04G16G22G26G27G29G31G32R02R03R04
                                R13R14R15R23R24
  23150590.760   121657171.25008  23150592.860    94797804.68248  23150592.840  
  90847933.03108
  24024394.940   126249064.47107  24024395.260    98375904.90446  24024398.060  
  94276918.46107
  20635792.020   108441958.64509  20635790.440    84500250.95248                
                
  23287011.500   122374097.00808  23287009.020    95356447.46647                
                
  20541566.020   107946851.24509  20541567.920    84114482.00349  20541566.620  
  80609711.05409
  22976653.260   120743160.43308  22976658.020    94085615.84048  22976658.200  
  90165370.53708
  24758048.880   130104635.14307  24758047.980   101380334.71846                
                
  22001160.000   115617053.65409  22001158.180    90091277.01748                
                
  22485121.920   118160262.14809  22485125.180    92073016.70449  22485124.940  
  88236618.36608
  22625292.760   120732877.26108  22625300.040    93903354.82007                
                
  19571608.880   104768389.47509  19571609.660    81486564.64608                
                
  20528152.260   109927351.16509  20528152.260    85499063.25708                
                
  22156823.020   118316194.96005  22156823.980    92023713.03705                
                
  20845590.940   111118897.74909  20845593.380    86425855.73408                
                
  23036469.020   123100000.72908  23036473.000    95744511.97006                
                
  22788571.460   121903596.49008                                                
                
  22954371.300   122747335.89908  22954377.860    95470206.73106                
                
 21 10 14 12 01  5.0000000  0 17G03G04G16G22G26G27G29G31G32R02R03R04
                                R13R14R15R23R24
  23150861.960   121658596.13808  23150863.980    94798915.00648  23150863.980  
  90848997.05408
  24021210.260   126232328.96707  24021210.560    98362864.29546  24021213.360  
  94264421.16907
  20634849.160   108437003.93709  20634847.600    84496390.18248                
                
  23288080.300   122379713.61908  23288077.880    95360824.06847                
                
  20542893.660   107953828.15409  20542895.560    84119918.59249  20542894.260  
  80614921.07909
  22973262.420   120725341.75608  22973267.220    94071731.23248  22973267.420  
  90152064.41808
  24760312.200   130116529.04607  24760311.320   101389602.73946                
                
  22001976.940   115621346.84509  22001975.140    90094622.38948                
                
  22487831.620   118174501.64209  22487834.880    92084112.43449  22487834.660  
  88247251.73008
  22629357.540   120754567.61208  22629364.880    93920225.10406                
                
  19573356.620   104777745.26109  19573357.400    81493841.39808                
                
  20526130.460   109916524.26109  20526130.420    85490642.36708                
                
  22158757.580   118326525.37605  22158758.520    92031747.85105                
                
  20845944.020   111120779.85409  20845946.460    86427319.63207                
                
  23035138.020   123092888.57308  23035142.040    95738980.36606                
                
  22787225.760   121896398.17008                                                
                
  22951656.340   122732817.83808  22951662.840    95458914.97606                
                
 21 10 14 12 01 10.0000000  0 17G03G04G16G22G26G27G29G31G32R02R03R04
                                R13R14R15R23R24
  23151135.700   121660034.52008  23151137.680    94800035.81748  23151137.660  
  90850071.17108
  24018025.980   126215595.68307  24018026.300    98349825.37746  24018029.080  
  94251925.53407
  20633909.000   108432063.22709  20633907.400    84492540.28648                
                
  23289150.740   122385338.88408  23289148.360    95365207.38047                
                
  20544222.980   107960813.77009  20544224.880    84125361.92449  20544223.560  
  80620137.60809
  22969872.280   120707526.50708  22969877.040    94057849.25048  22969877.300  
  90138760.86208
  24762577.680   130128434.17407  24762576.800   101398879.45246                
                
  22002794.260   115625641.87209  22002792.440    90097969.16548                
                
  22490543.160   118188750.73909  22490546.400    92095215.60249  22490546.220  
  88257892.26008
  22633423.180   120776262.62508  22633430.580    93937098.97407                
                
  19575108.200   104787121.62209  19575109.000    81501134.12108                
                
  20524112.260   109905716.52709  20524112.140    85482236.35008                
                
  22160691.640   118336853.46905  22160692.640    92039780.81405                
                
  20846297.860   111122666.08109  20846300.280    86428786.69408                
                
  23033808.180   123085782.73908  23033812.220    95733453.63106                
                
  22785882.800   121889214.40808                                                
                
  22948941.980   122718303.12308  22948948.460    95447625.81106                
                
 21 10 14 12 01 15.0000000  0 17G03G04G16G22G26G27G29G31G32R02R03R04
                                R13R14R15R23R24
  23151411.760   121661485.16908  23151413.680    94801166.15948  23151413.680  
  90851154.44308
  24014841.900   126198863.38807  24014842.220    98336787.18346  24014844.980  
  94239430.63907
  20632971.240   108427135.28609  20632969.640    84488700.30148                
                
  23290222.580   122390971.59408  23290220.260    95369596.46347                
                
  20545553.700   107967806.84008  20545555.600    84130811.04348  20545554.300  
  80625359.72009
  22966482.540   120689713.46908  22966487.280    94043968.95848  22966487.580  
  90125458.94808
  24764845.080   130140349.18707  24764844.100   101408163.85746                
                
  22003611.660   115629937.45608  22003609.840    90101316.35148                
                
  22493256.260   118203008.18609  22493259.500    92106325.25449  22493259.340  
  88268539.02808
  22637489.360   120797960.54008  22637496.820    93953975.07807                
                
  19576863.320   104796517.22009  19576864.180    81508441.77308                
                
  20522097.400   109894926.80809  20522097.240    85473844.32108                
                
  22162625.080   118347178.01905  22162626.060    92047810.99205                
                
  20846652.220   111124555.11809  20846654.640    86430255.91808                
                
  23032479.320   123078681.99408  23032483.340    95727930.81706                
                
  22784542.320   121882043.89108                                                
                
  22946227.980   122703790.32408  22946234.400    95436338.09606                
                
 21 10 14 12 01 20.0000000  0 17G03G04G16G22G26G27G29G31G32R02R03R04
                                R13R14R15R23R24
  23151690.500   121662949.86908  23151692.420    94802307.50748  23151692.340  
  90852248.19208
  24011658.380   126182133.89307  24011658.720    98323751.25846  24011661.420  
  94226937.82907
  20632036.260   108422221.89309  20632034.680    84484871.72748                
                
  23291296.220   122396613.52108  23291293.920    95373992.78646                
                
  20546886.200   107974809.16109  20546888.100    84136267.42749  20546886.800  
  80630588.72009
  22963093.540   120671904.39308  22963098.300    94030091.82548  22963098.600  
  90112160.01908
  24767114.700   130152275.92807  24767113.660   101417457.45145                
                
  22004429.500   115634235.41108  22004427.700    90104665.43747                
                
  22495971.320   118217275.74409  22495974.540    92117442.84649  22495974.400  
  88279193.35708
  22641556.420   120819663.01108  22641563.940    93970854.79607                
                
  19578622.420   104805933.96909  19578623.320    81515765.93608                
                
  20520086.240   109884156.94509  20520086.040    85465467.78808                
                
  22164558.140   118357500.70005  22164559.180    92055839.77305                
                
  20847007.440   111126448.78709  20847009.880    86431728.79608                
                
  23031151.740   123071588.14308  23031155.780    95722413.43406                
                
  22783204.680   121874888.43008                                                
                
  22943514.680   122689281.30108  22943521.020    95425053.37306                
                
 21 10 14 12 01 25.0000000  0 17G03G04G16G22G26G27G29G31G32R02R03R04
                                R13R14R15R23R24
  23151971.780   121664428.06308  23151973.680    94803459.33148  23151973.580  
  90853352.03008
  24008475.340   126165406.65507  24008475.580    98310717.03146  24008478.300  
  94214446.71207
  20631103.920   108417322.50009  20631102.360    84481054.01448                
                
  23292371.500   122402264.14008  23292369.180    95378395.85647                
                
  20548220.360   107981820.18809  20548222.240    84141730.56049  20548220.940  
  80635824.21809
  22959705.220   120654098.84808  22959710.000    94016217.40248  22959710.280  
  90098863.68808
  24769386.440   130164213.81907  24769385.320   101426759.69945                
                
  22005247.720   115638535.20708  22005245.940    90108015.92648                
                
  22498688.180   118231552.89209  22498691.400    92128567.87249  22498691.300  
  88289854.83808
  22645624.420   120841370.63508  22645632.000    93987738.46907                
                
  19580385.340   104815371.21109  19580386.280    81523106.00708                
                
  20518078.660   109873406.30809  20518078.440    85457106.17608                
                
  22166490.780   118367820.91305  22166491.820    92063866.61005                
                
  20847363.420   111128346.59009  20847365.880    86433204.86508                
                
  23029825.420   123064500.77708  23029829.420    95716901.05406                
                
  22781869.760   121867747.54808                                                
                
  22940802.040   122674775.62308  22940808.340    95413771.21606                
                
 21 10 14 12 01 30.0000000  0 17G03G04G16G22G26G27G29G31G32R02R03R04
                                R13R14R15R23R24
  23152255.440   121665918.66408  23152257.280    94804620.80148  23152257.160  
  90854465.14408
  24005292.480   126148680.61007  24005292.720    98297683.71646  24005295.400  
  94201956.47807
  20630174.060   108412436.03409  20630172.500    84477246.34348                
                
  23293448.240   122407922.35708  23293445.880    95382804.80547                
                
  20549555.960   107988838.78709  20549557.820    84147199.56649  20549556.540  
  80641065.38709
  22956317.380   120636295.70808  22956322.120    94002344.80848  22956322.420  
  90085569.16308
  24771660.060   130176161.80707  24771658.760   101436069.79945                
                
  22006066.080   115642835.77009  22006064.300    90111366.97748                
                
  22501406.660   118245838.52509  22501409.860    92139699.48949  22501409.800  
  88300522.66508
  22649692.900   120863080.84008  22649700.560    94004624.11707                
                
  19582151.900   104824827.82009  19582152.860    81530461.10408                
                
  20516074.480   109862673.88709  20516074.220    85448758.69508                
                
  22168422.860   118378137.61105  22168423.860    92071890.66005                
                
  20847719.960   111130247.30909  20847722.400    86434683.15808                
                
  23028500.080   123057418.53808  23028504.040    95711392.64006                
                
  22780537.360   121860620.05308                                                
                
  22938089.800   122660272.24608  22938096.040    95402490.82506                
                
 21 10 14 12 01 35.0000000  0 17G03G04G16G22G26G27G29G31G32R02R03R04
                                R13R14R15R23R24
  23152541.700   121667423.00708  23152543.500    94805793.03948  23152543.400  
  90855588.50708
  24002110.120   126131957.10907  24002110.320    98284652.44746  24002113.000  
  94189468.14507
  20629246.920   108407563.86509  20629245.360    84473449.89348                
                
  23294526.680   122413589.49808  23294524.280    95387220.77947                
                
  20550893.260   107995866.29609  20550895.100    84152675.58649  20550893.840  
  80646313.20809
  22952930.220   120618496.28808  22952934.960    93988475.20448  22952935.300  
  90072277.43908
  24773935.900   130188121.19507  24773934.460   101445388.83045                
                
  22006884.840   115647138.44109  22006883.100    90114719.74548                
                
  22504127.000   118260133.96909  22504130.220    92150838.81249  22504130.160  
  88311197.81708
  22653762.360   120884796.00808  22653770.040    94021513.71307                
                
  19583922.320   104834305.10008  19583923.320    81537832.35208                
                
  20514073.960   109851961.01708  20514073.660    85440426.49208                
                
  22170354.460   118388452.27405  22170355.520    92079913.22005                
                
  20848077.320   111132152.37508  20848079.760    86436164.92008                
                
  23027175.980   123050342.90908  23027179.920    95705889.45206                
                
  22779207.760   121853507.53108                                                
                
  22935378.240   122645772.44208  22935384.440    95391213.29306                
                
 21 10 14 12 01 40.0000000  0 17G03G04G16G22G26G27G29G31G32R02R03R04
                                R13R14R15R23R24
  23152830.500   121668940.64608  23152832.240    94806975.59848  23152832.160  
  90856721.80508
  23998928.160   126115235.70207  23998928.320    98271622.78145  23998931.020  
  94176981.39007
  20628322.420   108402705.57209  20628320.860    84469664.19948                
                
  23295606.720   122419265.13608  23295604.280    95391643.33847                
                
  20552232.180   108002902.30809  20552234.020    84158158.18649  20552232.740  
  80651567.38109
  22949543.700   120600700.23608  22949548.420    93974608.18648  22949548.800  
  90058988.22508
  24776213.780   130200091.56207  24776212.320   101454716.40845                
                
  22007703.920   115651442.82409  22007702.200    90118073.79848                
                
  22506849.140   118274438.81609  22506852.360    92161985.42449  22506852.320  
  88321879.98308
  22657832.620   120906515.35908  22657840.300    94038406.52507                
                
  19585696.520   104843802.81009  19585697.560    81545219.44808                
                
  20512077.000   109841267.31109  20512076.700    85432109.15708                
                
  22172285.500   118398764.45905  22172286.680    92087933.80205                
                
  20848435.400   111134061.29509  20848437.860    86437649.62108                
                
  23025853.060   123043273.45408  23025856.940    95700391.01006                
                
  22777880.760   121846409.35508                                                
                
  22932667.320   122631275.90508  22932673.420    95379938.24206                
                
 21 10 14 12 01 45.0000000  0 17G03G04G16G22G26G27G29G31G32R02R03R04
                                R13R14R15R23R24
  23153121.780   121670471.28007  23153123.460    94808168.32747  23153123.420  
  90857864.81108
  23995746.520   126098516.14907  23995746.620    98258594.59245  23995749.380  
  94164496.02107
  20627400.520   108397860.80208  20627398.920    84465889.08148                
                
  23296688.320   122424948.98208  23296685.860    95396072.32646                
                
  20553572.640   108009946.51208  20553574.480    84163647.20348  20553573.220  
  80656827.66309
  22946157.780   120582907.26908  22946162.480    93960743.58348  22946162.880  
  90045701.30508
  24778493.720   130212072.59907  24778492.240   101464052.29345                
                
  22008523.260   115655748.57208  22008521.560    90121428.95048                
                
  22509573.000   118288752.73408  22509576.240    92173139.12849  22509576.180  
  88332568.93508
  22661903.520   120928238.20508  22661911.180    94055302.07806                
                
  19587474.480   104853320.46508  19587475.540    81552622.09108                
                
  20510083.540   109830592.49108  20510083.280    85423806.54208                
                
  22174216.120   118409073.87005  22174217.320    92095952.25605                
                
  20848794.140   111135973.82108  20848796.620    86439137.16607                
                
  23024531.180   123036209.84608  23024535.080    95694897.14206                
                
  22776556.440   121839325.33708                                                
                
  22929956.920   122616782.28508  22929962.940    95368665.48406                
                
 21 10 14 12 01 50.0000000  0 17G03G04G16G22G26G27G29G31G32R02R03R04
                                R13R14R15R23R24
  23153415.320   121672013.81707  23153416.940    94809370.27347  23153416.960  
  90859016.69908
  23992565.020   126081797.32507  23992565.100    98245566.91646  23992567.880  
  94152011.19707
  20626480.960   108393028.46309  20626479.360    84462123.61048                
                
  23297771.260   122430639.89708  23297768.800    95400506.77447                
                
  20554914.460   108016997.75809  20554916.280    84169141.66049  20554915.040  
  80662093.20009
  22942772.220   120565116.27608  22942776.900    93946880.48248  22942777.360  
  90032415.84408
  24780775.400   130224063.11307  24780773.920   101473395.52746                
                
  22009342.660   115660054.61608  22009340.980    90124784.28948                
                
  22512298.380   118303074.61909  22512301.620    92184298.99549  22512301.580  
  88343263.82408
  22665974.920   120949964.00508  22665982.620    94072199.88107                
                
  19589255.940   104862856.93409  19589257.040    81560039.32808                
                
  20508093.400   109819935.36309  20508093.140    85415517.65008                
                
  22176146.000   118419379.26805  22176147.220    92103967.54905                
                
  20849153.380   111137888.80109  20849155.860    86440626.57708                
                
  23023210.200   123029150.95908  23023214.100    95689406.90706                
                
  22775234.560   121832254.28808                                                
                
  22927246.820   122602290.38208  22927252.800    95357394.03306                
                
 21 10 14 12 01 55.0000000  0 17G03G04G16G22G26G27G29G31G32R02R03R04
                                R13R14R15R23R24
  23153711.420   121673569.85708  23153713.020    94810582.72448  23153713.100  
  90860178.67508
  23989384.000   126065080.90707  23989384.020    98232541.09745  23989386.860  
  94139528.14207
  20625564.060   108388210.14709  20625562.460    84458369.03948                
                
  23298855.860   122436339.50308  23298853.380    95404947.97047                
                
  20556257.920   108024057.68309  20556259.720    84174642.86149  20556258.500  
  80667365.23709
  22939387.360   120547328.87208  22939392.020    93933020.14848  22939392.520  
  90019133.08908
  24783059.220   130236064.80707  24783057.700   101482747.45546                
                
  22010162.440   115664362.56009  22010160.780    90128141.07948                
                
  22515025.580   118317406.09109  22515028.820    92195466.31749  22515028.800  
  88353965.86608
  22670047.120   120971693.98308  22670054.840    94089100.90707                
                
  19591041.240   104872413.80609  19591042.320    81567472.39508                
                
  20506106.840   109809297.71809  20506106.640    85407243.88708                
                
  22178075.380   118429682.30605  22178076.640    92111980.98105                
                
  20849513.360   111139807.84709  20849515.860    86442119.12608                
                
  23021890.400   123022098.42308  23021894.340    95683921.59906                
                
  22773915.460   121825198.03208                                                
                
  22924537.340   122587801.99708  22924543.300    95346125.29206                
                
 21 10 14 12 02  0.0000000  0 18G03G04G08G16G22G26G27G29G31G32R02R03
                                R04R13R14R15R23R24
  23154010.260   121675140.32108  23154011.900    94811806.51848  23154011.980  
  90861351.42108
  23986203.580   126048367.78507  23986203.640    98219517.94846  23986206.440  
  94127047.57907
  25167677.680                                                    25167685.480  
  98763385.04305
  20624650.040   108383406.78509  20624648.400    84454626.22048                
                
  23299942.300   122442048.71008  23299939.840    95409396.74047                
                
  20557603.200   108031127.20609  20557605.020    84180151.64649  20557603.780  
  80672644.42309
  22936003.400   120529546.06008  22936008.060    93919163.50648  22936008.540  
  90005853.75108
  24785345.380   130248078.55707  24785343.840   101492108.86846                
                
  22010982.760   115668673.40009  22010981.140    90131500.23448                
                
  22517754.760   118331748.06509  22517758.040    92206641.91849  22517758.020  
  88364675.75808
  22674120.300   120993429.02808  22674128.020    94106005.98507                
                
  19592830.580   104881992.25409  19592831.660    81574922.35308                
                
  20504124.100   109798680.43909  20504123.980    85398986.06608                
                
  22180004.560   118439983.84905  22180005.800    92119993.34005                
                
  20849874.280   111141731.84709  20849876.800    86443615.63208                
                
  23020571.980   123015053.26908  23020575.940    95678442.12606                
                
  22772599.300   121818157.44008                                                
                
  22921828.740   122573318.06908  22921834.700    95334860.12506                
                
 21 10 14 12 02  5.0000000  0 18G03G04G08G16G22G26G27G29G31G32R02R03
                                R04R13R14R15R23R24
  23154311.560   121676723.80508  23154313.260    94813040.38848  23154313.320  
  90862533.88308
  23983023.540   126031656.57007  23983023.600    98206496.21646  23983026.400  
  94114568.42307
  25164175.880   132238638.43915  25164183.460   103043111.37245  25164183.000  
  98749640.81805
  20623738.600   108378616.97809  20623736.940    84450893.90548                
                
  23301030.260   122447766.07308  23301027.860    95413851.80747                
                
  20558950.040   108038204.87709  20558951.840    84185666.71049  20558950.620  
  80677929.71209
  22932620.020   120511766.36008  22932624.660    93905309.22348  22932625.160  
  89992576.75108
  24787633.540   130260102.93207  24787632.040   101501478.51146                
                
  22011803.360   115672985.72209  22011801.760    90134860.48348                
                
  22520485.680   118346099.09709  22520488.960    92217824.52049  22520488.960  
  88375392.42608
  22678194.200   121015167.98708  22678201.940    94122914.04107                
                
  19594623.620   104891590.52609  19594624.700    81582387.67008                
                
  20502144.880   109788082.11109  20502144.820    85390742.92208                
                
  22181933.140   118450282.58505  22181934.380    92128003.47905                
                
  20850235.860   111143659.46309  20850238.400    86445114.89008                
                
  23019254.640   123008013.96908  23019258.600    95672967.13606                
                
  22771285.760   121811130.99908                                                
                
  22919120.760   122558837.27808  22919126.640    95323597.32906                
                
 21 10 14 12 02 10.0000000  0 18G03G04G08G16G22G26G27G29G31G32R02R03
                                R04R13R14R15R23R24
  23154615.340   121678320.22708  23154617.080    94814284.34348  23154617.140  
  90863726.00608
  23979843.880   126014947.23107  23979843.940    98193475.94946  23979846.720  
  94102090.67407
  25160672.900   132220230.02104  25160679.800   103028767.13344  25160680.320  
  98735894.15105
  20622829.700   108373840.67109  20622828.020    84447172.10448                
                
  23302119.800   122453491.55808  23302117.420    95418313.20147                
                
  20560298.460   108045290.67209  20560300.220    84191188.10749  20560299.000  
  80683221.04709
  22929237.240   120493989.81708  22929241.840    93891457.39248  22929242.380  
  89979302.08708
  24789923.780   130272137.89107  24789922.200   101510856.40345                
                
  22012624.200   115677299.39109  22012622.640    90138221.77348                
                
  22523218.320   118360459.15909  22523221.600    92229014.14649  22523221.600  
  88386115.82208
  22682268.800   121036910.64108  22682276.520    94139824.95907                
                
  19596420.420   104901208.79809  19596421.460    81589868.53308                
                
  20500169.180   109777502.67809  20500169.200    85382514.46608                
                
  22183861.200   118460578.40905  22183862.480    92136011.34105                
                
  20850598.080   111145590.57209  20850600.640    86446616.85907                
                
  23017938.340   123000980.44508  23017942.320    95667496.62406                
                
  22769974.880   121804118.80308                                                
                
  22916413.340   122544359.41708  22916419.140    95312336.80306                
                
 21 10 14 12 02 15.0000000  0 18G03G04G08G16G22G26G27G29G31G32R02R03
                                R04R13R14R15R23R24
  23154921.680   121679930.26208  23154923.520    94815538.90948  23154923.520  
  90864928.28908
  23976664.680   125998240.44007  23976664.740    98180457.66946  23976667.540  
  94089614.82407
  25157169.840   132201818.99105  25157176.920   103014420.80945  25157176.880  
  98722145.61905
  20621923.500   108369078.53709  20621921.820    84443461.35248                
                
  23303210.980   122459225.80508  23303208.660    95422781.43647                
                
  20561648.500   108052385.22209  20561650.240    84196716.33649  20561649.060  
  80688518.93309
  22925855.200   120476217.07208  22925859.780    93877608.54348  22925860.300  
  89966030.27108
  24792216.140   130284184.09007  24792214.560   101520243.06446                
                
  22013445.440   115681615.08908  22013443.880    90141584.66348                
                
  22525952.800   118374828.89909  22525956.080    92240211.33349  22525956.100  
  88396846.44208
  22686344.160   121058657.61208  22686351.900    94156739.25007                
                
  19598221.020   104910847.60209  19598222.060    81597365.38708                
                
  20498197.200   109766942.85509  20498197.260    85374301.27408                
                
  22185788.900   118470872.08005  22185790.200    92144017.53905                
                
  20850961.100   111147525.79209  20850963.640    86448122.03908                
                
  23016623.220   122993953.41708  23016627.280    95662031.19506                
                
  22768666.820   121797121.52708                                                
                
  22913706.520   122529885.17608  22913712.360    95301079.10806                
                
 21 10 14 12 02 20.0000000  0 18G03G04G08G16G22G26G27G29G31G32R02R03
                                R04R13R14R15R23R24
  23155230.540   121681553.34108  23155232.440    94816803.63548  23155232.380  
  90866140.33008
  23973485.860   125981535.66007  23973485.900    98167440.94546  23973488.720  
  94077140.46707
  25153666.240   132183404.80605  25153672.440   103000072.02145  25153672.820  
  98708394.71905
  20621019.920   108364330.00509  20621018.200    84439761.19748                
                
  23304303.740   122464968.28708  23304301.460    95427256.07947                
                
  20563000.140   108059487.98809  20563001.840    84202250.95749  20563000.660  
  80693822.94709
  22922473.780   120458447.59008  22922478.300    93863762.21448  22922478.840  
  89952760.89008
  24794510.480   130296240.98806  24794508.920   101529638.05046                
                
  22014266.960   115685932.30008  22014265.420    90144948.71848                
                
  22528689.000   118389207.74509  22528692.300    92251415.60749  22528692.340  
  88407583.87808
  22690420.260   121080408.18008  22690427.940    94173656.33106                
                
  19600025.360   104920506.34809  19600026.400    81604877.73308                
                
  20496228.780   109756402.04509  20496228.860    85366102.85508                
                
  22187716.100   118481162.91105  22187717.340    92152021.49505                
                
  20851324.840   111149464.68109  20851327.340    86449630.06108                
                
  23015309.180   122986932.30708  23015313.340    95656570.36906                
                
  22767361.420   121790138.49008                                                
                
  22911000.300   122515414.11208  22911006.160    95289823.88006                
                
 21 10 14 12 02 25.0000000  0 18G03G04G08G16G22G26G27G29G31G32R02R03
                                R04R13R14R15R23R24
  23155542.020   121683190.15808  23155543.960    94818079.07948  23155543.860  
  90867362.60908
  23970307.560   125964833.57507  23970307.600    98154426.34446  23970310.440  
  94064668.13507
  25150161.760   132164988.24805  25150168.360   102985721.41545  25150168.360  
  98694642.02006
  20620119.020   108359595.74909  20620117.300    84436072.18548                
                
  23305398.200   122470719.62708  23305395.920    95431737.64447                
                
  20564353.440   108066599.61209  20564355.120    84207792.49849  20564353.940  
  80699133.57909
  22919093.080   120440682.06508  22919097.580    93849918.99648  22919098.140  
  89939494.46008
  24796806.980   130308309.24007  24796805.420   101539041.87245                
                
  22015088.900   115690251.68708  22015087.380    90148314.48848                
                
  22531427.080   118403596.39509  22531430.380    92262627.53149  22531430.420  
  88418328.62208
  22694497.180   121102163.07308  22694504.800    94190576.80906                
                
  19601833.600   104930185.81709  19601834.620    81612406.21208                
                
  20494264.120   109745881.10909  20494264.160    85357919.91408                
                
  22189642.900   118491451.65905  22189644.060    92160023.88205                
                
  20851689.380   111151407.87109  20851691.860    86451141.43907                
                
  23013996.460   122979917.78608  23014000.540    95651114.68006                
                
  22766058.840   121783170.68308                                                
                
  22908294.860   122500947.05308  22908300.740    95278571.77206                
                
 21 10 14 12 02 30.0000000  0 18G03G04G08G16G22G26G27G29G31G32R02R03
                                R04R13R14R15R23R24
  23155855.820   121684839.05708  23155857.740    94819363.90748  23155857.620  
  90868593.91808
  23967129.460   125948132.58107  23967129.540    98141412.56646  23967132.380  
  94052196.62107
  25146656.320   132146567.61206  25146663.140   102971367.59746  25146663.120  
  98680886.26006
  20619220.540   108354874.16009  20619218.800    84432393.01248                
                
  23306494.040   122476478.25708  23306491.760    95436224.85447                
                
  20565708.120   108073718.46909  20565709.760    84213339.64549  20565708.620  
  80704449.61409
  22915712.840   120422918.89408  22915717.320    93836077.57548  22915717.900  
  89926229.79208
  24799105.340   130320387.18507  24799103.820   101548453.25246                
                
  22015910.960   115694571.61508  22015909.420    90151680.65048                
                
  22534166.720   118417993.19809  22534170.020    92273845.78449  22534170.060  
  88429079.45908
  22698574.620   121123920.82108  22698582.180    94207499.47906                
