     2.11           OBSERVATION DATA    M (MIXED)           RINEX VERSION / TYPE
NetR9 5.41          SMO                 20190607 050325 UTC PGM / RUN BY / DATE
HKQT                                                        MARKER NAME
23013M001                                                   MARKER NUMBER
SMO                 Lands Department HKSAR                  OBSERVER / AGENCY
5247K53928          TRIMBLE NETR9       5.41                REC # / TYPE / VERS
4624A16997          TRM59800.00     SCIT                    ANT # / TYPE
 -2421567.8916  5384910.5631  2404264.3943                  APPROX POSITION XYZ
        0.0083        0.0000        0.0000                  ANTENNA: DELTA H/E/N
     1     1                                                WAVELENGTH FACT L1/2
    11    C1    L1    S1    P1    C2    L2    S2    P2    C5# / TYPES OF OBSERV
          L5    S5                                          # / TYPES OF OBSERV
     5.000                                                  INTERVAL
  2019    06    07    04    00   00.0000000     GPS         TIME OF FIRST OBS
  2019    06    07    04    59   55.0000000     GPS         TIME OF LAST OBS
L2C CARRIER PHASE MEASUREMENTS: PHASE SHIFTS REMOVED        COMMENT
L2C PHASE MATCHES L2 P PHASE                                COMMENT
GLONASS C/A & P PHASE MATCH: PHASE SHIFTS REMOVED           COMMENT
    18                                                      LEAP SECONDS
                                                            COMMENT
EPOCH COUNT     m00  m10  m20  m30  m40  m50                COMMENT
               ---- ---- ---- ---- ---- ----                COMMENT
          E     120  120  120  120  120  120                COMMENT
                                                            END OF HEADER
 19  6  7  4  0  0.0000000  0 18G 7R20G18G 8G27R16G11R19G 9R 9G17G16  .000000000
                                R21G 1G30R10G22G28
  20248938.57809 106409123.32409        51.500                    20248944.48409
  82916063.34049        43.600    20248944.77749                                
                
  19560951.70308 104601228.52908        47.200    19560951.70308  19560957.27309
  81356531.54109        49.100    19560956.89109                                
                
  20336593.00009 106869548.42709        50.600                                  
  83274985.18949        42.000    20336600.32049                                
                
  22299200.12508 117183155.70108        45.800                    22299209.93007
  91311510.25249        35.900    22299209.68449  22299208.70309  87506859.36009
        48.700  
  24955735.11704 131143383.13904        34.200                    24955746.82805
 102189540.25945        18.300    24955745.60245  24955745.07407  97931628.47507
        42.000  
  21306151.93807 113813553.67507        44.000    21306152.21507  21306155.52306
  88521684.86806        39.900    21306157.15206                                
                
  20258383.98408 106458653.15208        46.500                                  
  82954734.47949        42.000    20258389.47749                                
                
  21232035.46105 113577114.45405        37.700    21232032.79305  21232037.00007
  88337718.02607        41.300    21232037.02007                                
                
  23988892.23406 126062453.12906        40.600                    23988900.03904
  98230507.19946        20.900    23988900.54346  23988900.54706  94137567.30306
        39.500  
  19515073.85909 104209427.97809        52.300    19515073.10509  19515076.02709
  81051791.06809        50.300    19515076.34809                                
                
  24438411.93001                        27.600                    24438421.72301
 100071250.45701        28.700                                                  
                
  25160331.95303 132218472.81903        33.500                                  
 103027370.73845        15.600    25160341.52745                                
                
  22739146.10208 121681768.95808        46.500    22739145.14107  22739151.39506
  94641387.36106        40.500    22739151.23406                                
                
  20322025.18009 106793040.83509        49.500                    20322034.99209
  83215352.24049        43.800    20322035.22749  20322033.42209  79748033.69009
        54.100  
  21626187.53109 113646412.87709        48.800                    21626196.52308
  88555673.73649        38.400    21626196.28549  21626195.85209  84865856.51109
        50.700  
  22048948.37508 117533314.85408        46.600    22048947.57808  22048954.50805
  91414821.98005        35.600    22048955.36305                                
                
  24043209.22705 126347994.22005        36.000                                  
  98452941.69546        20.600    24043215.60246                                
                
  24271146.03105 127545741.91605        36.700                                  
  99386329.75045        19.300    24271152.66045                                
                
 19  6  7  4  0  5.0000000  0 18G 7R20G18G 8G27R16G11R19G 9R 9G17G16  .000000000
                                R21G 1G30R10G22G28
  20248565.57809 106407162.97409        50.400                    20248571.51209
  82914535.78849        43.800    20248571.70349                                
                
  19560823.43008 104600541.74508        47.800    19560823.14108  19560829.23009
  81355997.37309        48.600    19560828.41009                                
                
  20337030.88309 106871848.75709        50.200                                  
  83276777.65249        42.300    20337038.15649                                
                
  22301260.60208 117193982.88308        45.800                    22301270.21908
  91319947.00449        35.400    22301270.01649  22301268.90209  87514944.59609
        48.700  
  24958308.07003 131156906.07403        33.900                    24958319.14105
 102200077.57145        19.600    24958319.02345  24958319.14107  97941726.78107
        41.900  
  21308491.87507 113826046.50307        44.600    21308491.00007  21308493.68007
  88531401.49506        40.500    21308496.07406                                
                
  20258450.23408 106459003.04608        46.400                                  
  82955007.12749        41.500    20258456.10249                                
                
  21235224.57005 113594184.46605        37.800    21235223.91405  21235228.66007
  88350994.69007        41.800    21235228.07407                                
                
  23990923.00006 126073125.12606        40.500                    23990930.66003
  98238823.06046        20.400    23990931.12546  23990931.62906  94145536.64906
        39.500  
  19513646.36709 104201806.06909        52.500    19513645.84409  19513648.39109
  81045862.91109        50.300    19513649.07009                                
                
  24436622.38301                        28.900                    24436632.65201
 100063920.58301        30.700                                                  
                
  25162143.24203 132227993.12503        32.400                                  
 103034789.08445        16.300    25162153.33245                                
                
  22736127.07808 121665612.59208        45.800    22736125.48007  22736131.98807
  94628821.27506        40.600    22736131.94906                                
                
  20320764.41409 106786414.71709        49.200                    20320774.16409
  83210189.02949        44.000    20320774.33649  20320772.50009  79743085.61709
        54.100  
  21624110.85209 113635501.53909        48.500                    21624120.25408
  88547171.39649        39.400    21624119.65249  21624119.43809  84857708.43509
        50.500  
  22045497.50008 117514916.85808        47.000    22045496.28908  22045503.60205
  91400512.43805        35.800    22045503.97305                                
                
  24041434.96904 126338669.68404        34.700                                  
  98445675.81145        19.600    24041440.99245                                
                
  24269390.64805 127536518.47505        36.700                                  
  99379142.63245        19.300    24269397.80945                                
                
 19  6  7  4  0 10.0000000  0 18G 7R20G18G 8G27R16G11R19G 9R 9G17G16  .000000000
                                R21G 1G30R10G22G28
  20248195.51609 106405219.26109        50.500                    20248201.48009
  82913021.20349        43.900    20248201.89149                                
                
  19560698.46108 104599873.52408        47.700    19560698.38308  19560704.45709
  81355477.64109        48.900    19560703.33609                                
                
  20337471.81309 106874166.40709        50.300                                  
  83278583.61049        41.900    20337479.26649                                
                
  22303321.08608 117204810.44608        46.000                    22303331.09407
  91328384.06249        35.100    22303330.47349  22303329.45309  87523030.09009
        48.600  
  24960880.60204 131170425.28204        34.300                    24960891.57405
 102210612.02345        17.400    24960891.38345  24960891.41807  97951822.33507
        42.100  
  21310832.67207 113838553.21107        44.300    21310832.44907  21310835.67607
  88541128.91306        40.100    21310837.31606                                
                
  20258519.71108 106459366.91808        46.600                                  
  82955290.65649        42.300    20258525.39549                                
                
  21238418.14805 113611260.39505        37.900    21238416.36305  21238419.79707
  88364275.96907        41.200    21238420.30507                                
                
  23992952.09406 126083795.90206        39.900                    23992961.04303
  98247137.97445        19.000    23992961.06345  23992962.15606  94153505.10006
        38.900  
  19512221.92209 104194198.68909        52.600    19512221.03909  19512223.85209
  81039946.06009        50.700    19512224.45709                                
                
  24434833.25001                        27.600                    24434844.50801
 100056595.74901        30.200                                                  
                
  25163954.95302                        31.800                                  
                        15.600    25163965.39545                                
                
  22733108.82808 121649466.88608        45.900    22733108.50007  22733115.14807
  94616263.52606        40.400    22733114.59006                                
                
  20319506.85209 106779805.10009        49.300                    20319516.25409
  83205038.68049        43.900    20319516.49649  20319514.63709  79738149.86709
        54.100  
  21622036.38308 113624602.12908        47.600                    21622046.24608
  88538678.35149        38.400    21622045.91849  21622045.34009  84849569.27009
        50.700  
  22042046.12508 117496521.02408        46.600    22042045.31308  22042051.51605
  91386204.56505        36.000    22042053.05505                                
                
  24039659.70305 126329345.39905        35.600                                  
  98438410.11646        20.100    24039666.71946                                
                
  24267634.26605 127527291.60905        36.300                                  
  99371952.87046        20.100    24267642.04746                                
                
 19  6  7  4  0 15.0000000  0 18G 7R20G18G 8G27R16G11R19G 9R 9G17G16  .000000000
                                R21G 1G30R10G22G28
  20247828.92209 106403292.23009        50.900                    20247835.02709
  82911519.61549        43.800    20247834.97349                                
                
  19560577.27308 104599223.88308        47.500    19560576.52308  19560582.99609
  81354972.36309        48.900    19560581.82009                                
                
  20337916.26609 106876501.41409        50.800                                  
  83280403.10249        42.200    20337923.57049                                
                
  22305381.47708 117215638.37008        46.400                    22305391.20707
  91336821.40649        35.500    22305390.89549  22305389.81609  87531115.87209
        48.900  
  24963452.62505 131183940.79005        35.100                    24963464.07805
 102221143.59145        19.000    24963463.44945  24963462.96107  97961915.00607
        41.300  
  21313176.58607 113851073.70207        43.500    21313176.20707  21313179.53906
  88550867.05106        39.500    21313181.22706                                
                
  20258591.43808 106459744.76108        46.400                                  
  82955585.07549        41.600    20258597.30149                                
                
  21241612.00806 113628342.35706        38.100    21241609.32405  21241612.93007
  88377561.93306        40.700    21241613.48406                                
                
  23994983.33606 126094465.46506        40.500                    23994990.73803
  98255451.95045        19.000    23994991.27045  23994991.67606  94161472.64506
        38.400  
  19510799.67209 104186605.78909        52.200    19510799.24609  19510801.89809
  81034040.46609        50.600    19510802.46109                                
                
  24433046.37501 128396502.66701        28.900                    24433056.06301
 100049276.00511        24.500                                                  
                
  25165768.77302 132247043.05402        31.000                                  
 103049633.14443        13.900    25165778.97343                                
                
  22730094.07808 121633332.05508        46.100    22730093.37508  22730099.55907
  94603714.19006        40.600    22730099.71506                                
                
  20318251.93009 106773211.99609        49.100                    20318261.60909
  83199901.19549        43.900    20318261.94949  20318260.02709  79733226.44209
        54.100  
  21619964.85209 113613714.70909        48.500                    21619974.17608
  88530194.65449        39.100    21619973.97349  21619973.50809  84841439.06309
        50.600  
  22038595.14808 117478127.12908        46.000    22038594.27707  22038602.10905
  91371898.21905        36.000    22038602.68805                                
                
  24037885.71905 126320021.39805        35.200                                  
  98431144.66846        20.900    24037892.17246                                
                
  24265878.21905 127518061.32505        36.800                                  
  99364760.45446        20.600    24265885.75846                                
                
 19  6  7  4  0 20.0000000  0 18G 7R20G18G 8G27R16G11R19G 9R 9G17G16  .000000000
                                R21G 1G30R10G22G28
  20247465.28109 106401381.84709        50.700                    20247471.55509
  82910031.00549        43.900    20247471.64149                                
                
  19560458.35208 104598592.82508        47.000    19560458.46908  19560464.87909
  81354481.54009        49.100    19560463.93809                                
                
  20338363.80509 106878853.85309        50.700                                  
  83282236.16749        42.500    20338371.08649                                
                
  22307441.85208 117226466.68108        45.700                    22307451.79307
  91345259.04149        35.400    22307451.59849  22307450.52309  87539201.96209
        48.600  
  24966024.46103 131197452.52203        33.500                    24966034.80106
 102231672.16345        19.300    24966034.81645  24966034.06306  97972004.94206
        40.500  
  21315523.17207 113863608.00107        44.300    21315522.55907  21315526.43806
  88560615.92906        40.000    21315527.62506                                
                
  20258666.19508 106460136.55908        46.600                                  
  82955890.37049        41.600    20258671.80549                                
                
  21244805.94506 113645430.38006        38.600    21244803.87905  21244808.05907
  88390852.61807        41.000    21244807.91407                                
                
  23997013.34406 126105133.80906        39.900                    23997022.26204
  98263764.99346        20.600    23997021.52046  23997021.85206  94169439.28406
        39.000  
  19509381.05509 104179027.48409        52.300    19509379.88309  19509382.50409
  81028146.22309        50.100    19509383.23009                                
                
  24431259.62501 128387115.49901        27.600                                  
                                                                                
                
  25167581.96903 132256572.70103        32.000                                  
 103057058.81343        13.900    25167592.49243                                
                
  22727081.01608 121617207.98008        46.500    22727080.37107  22727085.83206
  94591173.25206        40.100    22727086.09006                                
                
  20317000.42209 106766635.41809        49.200                    20317010.17209
  83194776.59149        43.600    20317010.44949  20317008.60209  79728315.35909
        54.100  
  21617895.20308 113602839.27708        47.300                    21617904.75008
  88521720.29149        39.000    21617904.45349  21617903.95309  84833317.80209
        50.500  
  22035145.32008 117459735.37008        47.100    22035144.22308  22035151.30505
  91357593.52305        35.800    22035152.21905                                
                
  24036111.35205 126310697.73505        35.400                                  
  98423879.47645        19.900    24036118.41045                                
                
  24264121.59405 127508827.58205        36.300                                  
  99357565.34445        19.600    24264128.71545                                
                
 19  6  7  4  0 25.0000000  0 18G 7R20G18G 8G27R16G11R19G 9R 9G17G16  .000000000
                                R21G 1G30R10G22G28
  20247105.12509 106399488.12109        50.900                    20247111.23409
  82908555.36249        44.500    20247111.27749                                
                
  19560344.42208 104597980.30308        47.300    19560344.25408  19560350.03909
  81354005.13509        49.100    19560349.34809                                
                
  20338814.71909 106881223.66209        50.100                                  
  83284082.77349        42.100    20338822.23049                                
                
  22309502.61708 117237295.32708        45.800                    22309512.71907
  91353696.94049        35.300    22309512.19149  22309511.38709  87547288.26709
        49.100  
  24968594.47704 131210960.48604        34.100                    24968605.62106
 102242197.83445        19.900    24968605.42245  24968604.59407  97982092.04507
        41.800  
  21317871.84407 113876156.05307        44.000    21317871.58607  21317875.53107
  88570375.50706        39.600    21317876.68406                                
                
  20258743.08608 106460542.28908        46.600                                  
  82956206.52249        41.500    20258748.96149                                
                
  21247999.86706 113662524.19006        38.100    21247999.30105  21248003.44507
  88404147.78806        40.800    21248003.36306                                
                
  23999043.03106 126115800.88906        39.600                    23999052.67604
  98272076.99146        20.900    23999051.92646  23999052.79706  94177404.97006
        39.300  
  19507963.79709 104171463.76909        52.700    19507963.44509  19507966.42609
  81022263.33509        49.700    19507966.81309                                
                
  24429475.41401 128377734.68011        30.500                                  
                                                                                
                
  25169397.31302 132266105.54402        31.500                                  
 103064487.03045        15.600    25169406.31645                                
                
  22724070.22708 121601094.66108        46.400    22724069.38707  22724074.89506
  94578640.65606        39.600    22724075.01206                                
                
  20315752.07809 106760075.35009        49.300                    20315761.89809
  83189664.84849        43.500    20315762.06349  20315760.30109  79723416.62009
        54.100  
  21615828.32808 113591975.82508        47.400                    21615837.47308
  88513255.25849        39.000    21615837.22749  21615836.62909  84825205.46909
        50.500  
  22031695.49208 117441345.86108        46.300    22031694.84408  22031702.03505
  91343290.55905        35.300    22031702.45705                                
                
  24034337.04705 126301374.31805        35.300                                  
  98416614.46945        19.600    24034344.24245                                
                
  24262364.32805 127499590.43505        37.100                                  
  99350367.54445        19.000    24262371.18445                                
                
 19  6  7  4  0 30.0000000  0 18G 7R20G18G 8G27R16G11R19G 9R 9G17G16  .000000000
                                R21G 1G30R10G22G28
  20246747.60909 106397611.10509        50.500                    20246754.03909
  82907092.74249        44.100    20246754.03949                                
                
  19560233.48408 104597386.39108        47.300    19560233.02708  19560239.27009
  81353543.20709        48.900    19560238.20709                                
                
  20339269.00009 106883610.88609        50.400                                  
  83285942.93949        42.400    20339276.45349                                
                
  22311563.32008 117248124.32808        45.800                    22311573.16007
  91362135.12149        35.200    22311572.68049  22311571.74609  87555374.84709
        48.600  
  24971164.09403 131224464.63803        33.000                    24971175.15206
 102252720.55645        19.600    24971175.05945  24971174.07806  97992176.33906
        40.600  
  21320223.63307 113888717.96007        44.000    21320222.91807  21320226.36706
  88580145.85806        40.000    21320228.33206                                
                
  20258823.46908 106460961.92908        47.000                                  
  82956533.50749        41.800    20258828.85949                                
                
  21251196.77306 113679624.03106        38.300    21251196.05905  21251200.34807
  88417447.65906        40.900    21251199.80506                                
                
  24001073.57006 126126466.72706        40.100                    24001083.48405
  98280388.04046        21.800    24001081.82046  24001082.32406  94185369.72406
        39.300  
  19506549.87509 104163914.56709        52.900    19506549.84409  19506552.71509
  81016391.73909        49.700    19506553.15209                                
                
  24427691.32001                        30.500                                  
                                                                                
                
  25171210.97704 132275641.54404        34.000                                  
 103071917.65745        15.600    25171220.81345                                
                
  22721060.54708 121584992.09408        45.400    22721059.39507  22721065.77306
  94566116.43706        39.100    22721065.50006                                
                
  20314506.93809 106753531.81109        49.100                    20314516.59809
  83184565.99449        43.900    20314516.82849  20314515.13709  79718530.20709
        54.200  
  21613763.46109 113581124.35809        48.100                    21613772.27708
  88504799.56849        39.000    21613772.17649  21613771.74609  84817102.09109
        50.600  
  22028245.95308 117422958.50508        46.000    22028244.94108  22028253.07805
  91328989.29005        35.700    22028253.10205                                
                
  24032562.96105 126292051.27005        35.700                                  
  98409349.74945        19.900    24032570.02745                                
                
  24260605.58605 127490349.87705        36.900                                  
  99343167.13745        19.900    24260612.58645                                
                
 19  6  7  4  0 35.0000000  0 18G 7R20G18G 8G27R16G11R19G 9R 9G17G16  .000000000
                                R21G 1G30R10G22G28
  20246393.45309 106395750.75209        50.500                    20246399.85909
  82905643.11549        43.600    20246400.09449                                
                
  19560126.59408 104596810.99908        47.300    19560125.39807  19560131.88309
  81353095.67609        48.900    19560130.66809                                
                
  20339726.43009 106886015.38609        49.800                                  
  83287816.57649        41.300    20339733.93449                                
                
  22313623.96908 117258953.63908        45.600                    22313633.87107
  91370573.54049        34.900    22313633.48849  22313632.65209  87563461.66909
        48.600  
  24973732.75003 131237965.14403        32.200                    24973744.41006
 102263240.42045        19.300    24973744.17245  24973743.84407  98002257.80707
        42.700  
  21322577.78907 113901293.57407        43.200    21322577.62107  21322580.62507
  88589926.87306        39.800    21322582.41406                                
                
  20258905.91408 106461395.54808        46.700                                  
  82956871.39349        41.300    20258911.40249                                
                
  21254396.17206 113696729.77906        38.100    21254393.98805  21254398.01207
  88430752.12206        40.700    21254397.66006                                
                
  24003101.86706 126137131.25706        38.700                    24003111.93405
  98288698.06046        21.100    24003111.54746  24003111.27306  94193333.52106
        39.500  
  19505139.50809 104156380.04209        52.300    19505138.90208  19505142.05909
  81010531.54709        50.000    19505142.15609                                
                
  24425908.35901                        29.600                                  
                                                                                
                
  25173026.85903 132285180.64403        33.300                                  
 103079350.64745        16.900    25173035.89145                                
                
  22718053.00808 121568900.36108        46.600    22718053.20308  22718058.00807
  94553600.62406        40.000    22718058.26606                                
                
  20313264.59409 106747004.78809        49.000                    20313274.42609
  83179480.00149        43.400    20313274.99249  20313273.11709  79713656.14109
        54.100  
  21611700.80508 113570284.89308        47.600                    21611709.75408
  88496353.22049        38.800    21611709.65649  21611709.04309  84809007.68909
        50.500  
  22024797.05508 117404573.23308        45.300    22024795.80108  22024803.67205
  91314689.63405        35.400    22024803.91805                                
                
  24030789.60905 126282728.52505        35.700                                  
  98402085.27745        19.600    24030795.85945                                
                
  24258846.37505 127481105.85005        36.200                                  
  99335963.99745        19.300    24258853.89145                                
                
 19  6  7  4  0 40.0000000  0 18G 7R20G18G 8G27R16G11R19G 9R 9G17G16  .000000000
                                R21G 1G30R10G22G28
  20246042.68009 106393907.13609        51.300                    20246048.95309
  82904206.53649        44.300    20246049.09049                                
                
  19560021.80508 104596254.25308        47.400    19560021.49608  19560027.09809
  81352662.65109        48.800    19560026.47309                                
                
  20340187.32009 106888437.29809        50.400                                  
  83289703.77949        42.000    20340194.95349                                
                
  22315684.75808 117269783.25808        45.900                    22315694.68007
  91379012.20149        35.400    22315694.40249  22315693.30109  87571548.72109
        48.900  
  24976299.84402 131251461.78002        31.900                    24976313.23806
 102273757.25756        20.100    24976312.64546  24976311.53106  98012336.50106
        40.600  
  21324934.55507 113913882.97807        44.100    21324933.85507  21324937.16406
  88599718.61906        39.200    21324939.03906                                
                
  20258991.02308 106461843.13208        46.500                                  
  82957220.15849        41.800    20258996.51249                                
                
  21257594.69506 113713841.36306        38.400    21257592.85505  21257598.16406
  88444061.12606        40.400    21257596.39806                                
                
  24005131.46106 126147794.59806        39.000                    24005141.48805
  98297007.19946        21.500    24005141.12146  24005140.94906  94201296.38806
        39.900  
  19503731.41409 104148860.19209        52.700    19503730.66009  19503733.33209
  81004682.77309        50.000    19503734.07809                                
                
  24424128.25801 128349631.23701        30.500                                  
                                                                                
                
  25174841.17203 132294722.91503        33.500                                  
 103086786.11845        16.900    25174852.10245                                
                
  22715048.39808 121552819.49008        45.700    22715047.77307  22715053.27306
  94541093.28206        40.100    22715053.15206                                
                
  20312025.73409 106740494.38309        49.500                    20312035.94109
  83174406.95849        44.000    20312035.89149  20312034.19509  79708794.46709
        54.200  
  21609640.18009 113559457.49209        48.400                    21609649.47708
  88487916.26949        39.200    21609649.16849  21609648.70309  84800922.26309
        50.700  
  22021349.32008 117386190.34008        46.500    22021347.36707  22021354.93005
  91300391.82005        35.400    22021355.24605                                
                
  24029015.50805 126273406.20805        36.800                                  
  98394821.14245        19.900    24029022.32845                                
                
  24257085.85905 127471858.44205        36.800                                  
  99328758.19345        19.000    24257094.23045                                
                
 19  6  7  4  0 45.0000000  0 18G 7R20G18G 8G27R16G11R19G 9R 9G17G16  .000000000
                                R21G 1G30R10G22G28
  20245695.25809 106392080.21509        50.800                    20245701.34409
  82902782.94949        43.700    20245701.67249                                
                
  19559920.69508 104595715.93508        47.500    19559920.75808  19559927.17609
  81352243.95609        49.300    19559925.89809                                
                
  20340651.63309 106890876.66709        50.000                                  
  83291604.58049        41.700    20340658.97749                                
                
  22317745.71108 117280613.32808        45.500                    22317755.43807
  91387451.20449        35.000    22317755.28149  22317754.14509  87579636.11109
        48.500  
  24978869.71104 131264954.71704        34.900                    24978880.85506
 102284271.20046        20.400    24978880.22746  24978879.10907  98022412.35907
        41.200  
  21327293.97707 113926486.24107        43.900    21327293.55107  21327297.17606
  88609521.13906        39.600    21327298.40206                                
                
  20259078.84408 106462304.68708        46.600                                  
  82957579.80649        41.800    20259084.38349                                
                
  21260794.06306 113730958.96506        38.100    21260792.48805  21260797.64107
  88457374.79906        40.500    21260796.39506                                
                
  24007160.29706 126158456.60806        39.700                    24007170.41005
  98305315.25146        22.000    24007170.07046  24007170.77706  94209258.29006
        40.200  
  19502325.65609 104141355.00709        52.900    19502324.97709  19502328.30109
  80998845.40409        50.300    19502328.60509                                
                
  24422345.71101                        29.900                                  
                                                                                
                
  25176658.58603 132304268.43503        32.900                                  
 103094224.25945        16.300    25176668.05945                                
                
  22712046.22708 121536749.40808        46.200    22712044.90207  22712049.63706
  94528594.32206        40.100    22712049.98806                                
                
  20310790.37509 106734000.49409        49.100                    20310800.13309
  83169346.78849        43.700    20310800.24249  20310798.48009  79703945.14009
        54.200  
  21607582.31309 113548642.11409        48.400                    21607591.28108
  88479488.68949        39.400    21607591.16049  21607590.58209  84792845.84109
        50.600  
  22017899.69508 117367809.59008        46.400    22017899.32807  22017907.76205
  91286095.68705        36.200    22017906.96105                                
                
  24027241.60905 126264084.25505        36.500                                  
  98387557.25846        20.400    24027248.27746                                
                
  24255325.25005 127462607.63205        36.400                                  
  99321549.78945        18.600    24255333.23445                                
                
 19  6  7  4  0 50.0000000  0 18G 7R20G18G 8G27R16G11R19G 9R 9G17G16  .000000000
                                R21G 1G30R10G22G28
  20245350.89809 106390269.99409        50.800                    20245357.18809
  82901372.39049        43.800    20245357.14549                                
                
  19559823.82008 104595196.24508        47.300    19559823.23008  19559829.60909
  81351839.75209        49.300    19559828.66409                                
                
  20341119.52309 106893333.33209        49.900                                  
  83293518.87149        42.200    20341126.51249                                
                
  22319806.53908 117291443.65608        45.500                    22319816.33207
  91395890.41349        35.500    22319816.35949  22319815.22709  87587723.68209
        48.600  
  24981435.63303 131278443.87403        33.400                    24981446.86306
 102294782.21246        20.600    24981447.29746  24981445.83606  98032485.44206
        39.500  
  21329656.45307 113939103.24407        44.100    21329655.71507  21329659.20306
  88619334.35506        39.600    21329660.19506                                
                
  20259169.17208 106462780.18308        46.500                                  
  82957950.32349        41.700    20259174.81349                                
                
  21263996.01606 113748082.36606        38.900    21263993.91005  21263997.92607
  88470692.98706        40.700    21263997.47706                                
                
  24009187.81306 126169117.30806        38.300                    24009200.42205
  98313622.30046        22.500    24009199.12546  24009199.60906  94217219.21706
        40.300  
  19500923.16409 104133864.44709        52.400    19500922.41409  19500924.93409
  80993019.41009        50.700    19500925.84409                                
                
  24420566.89101                        29.900                                  
                                                                                
                
  25178475.40603 132313817.06203        32.000                                  
 103101664.72445        15.600    25178484.83645                                
                
  22709043.16407 121520690.14907        43.500    22709042.66807  22709048.78906
  94516103.79006        39.600    22709048.75006                                
                
  20309557.69509 106727523.20009        49.300                    20309567.46109
  83164299.55049        43.900    20309567.60249  20309565.92209  79699108.19809
        54.200  
  21605526.12509 113537838.83009        48.600                    21605535.44508
  88471070.56149        39.200    21605535.25049  21605534.76209  84784778.46909
        50.600  
  22014452.39808 117349430.94608        46.400    22014451.66807  22014458.75405
  91271801.18605        36.400    22014459.04305                                
                
  24025467.77305 126254762.66405        36.600                                  
  98380293.67946        21.300    24025474.39146                                
                
  24253564.68005 127453353.37505        35.400                                  
  99314338.70745        19.000    24253572.35545                                
                
 19  6  7  4  0 55.0000000  0 18G 7R20G18G 8G27R16G11R19G 9R 9G17G16  .000000000
                                R21G 1G30R10G22G28
  20245009.43009 106388476.49309        50.900                    20245015.73809
  82899974.85349        43.600    20245015.73049                                
                
  19559730.03108 104594695.14208        47.300    19559729.85508  19559735.51609
  81351450.00209        48.900    19559735.03109                                
                
  20341589.99209 106895807.45309        50.500                                  
  83295446.74949        42.400    20341597.23849                                
                
  22321867.67208 117302274.29708        45.600                    22321877.48407
  91404329.87049        35.200    22321877.03549  22321876.22709  87595811.48009
        48.700  
  24984001.88303 131291929.24503        32.000                    24984013.70706
 102305290.30745        18.600    24984013.42645  24984011.80506  98042555.67006
        40.300  
  21332021.00807 113951734.06507        44.400    21332020.32007  21332023.55106
  88629158.30906        39.400    21332024.85206                                
                
  20259262.36708 106463269.64108        46.700                                  
  82958331.71449        41.800    20259268.05149                                
                
  21267197.65606 113765211.57406        38.000    21267195.74205  21267199.95307
  88484015.70507        41.000    21267199.78107                                
                
  24011216.39805 126179776.73905        37.700                    24011228.21505
  98321928.29446        21.800    24011228.20346  24011228.10507  94225179.18807
        41.300  
  19499523.06309 104126388.60209        52.600    19499522.29309  19499525.11709
  80987204.85609        50.400    19499525.82809                                
                
  24418790.48401 128321585.93701        29.100                                  
                                                                                
                
  25180292.60902 132323368.91402        31.800                                  
 103109107.67645        16.900    25180302.50045                                
                
  22706045.22708 121504641.73908        45.400    22706044.75407  22706050.74206
  94503621.68806        39.900    22706049.91006                                
                
  20308328.23409 106721062.48309        49.100                    20308338.05109
  83159265.22749        43.800    20308338.22749  20308336.46109  79694283.63909
        54.300  
  21603472.80509 113527047.59709        48.800                    21603482.09008
  88462661.80449        39.500    21603481.77049  21603481.39509  84776720.07509
        50.500  
  22011004.90608 117331054.59608        46.500    22011004.26208  22011011.00805
  91257508.47505        35.600    22011011.56605                                
                
  24023693.29705 126245441.49605        36.200                                  
  98373030.46745        19.900    24023700.48045                                
                
  24251802.89805 127444095.69005        36.100                                  
  99307124.91045        19.000    24251810.80145                                
                
 19  6  7  4  1  0.0000000  0 17G 7R20G18G 8G27R16G11R19G 9R 9G16R21  .000000000
                                G 1G30R10G22G28
  20244671.47709 106386699.74909        50.300                    20244677.35209
  82898590.37649        43.800    20244677.78949                                
                
  19559640.02308 104594212.45308        46.800    19559639.41808  19559645.41809
  81351074.57509        49.000    19559644.72309                                
                
  20342064.01609 106898298.93009        50.000                                  
  83297388.15849        41.600    20342071.55149                                
                
  22323929.41408 117313105.26708        45.800                    22323938.30907
  91412769.58649        35.100    22323938.08649  22323937.23409  87603899.53809
        48.500  
  24986569.14804 131305410.84104        34.500                    24986578.68006
 102315795.42945        19.600    24986578.93045  24986577.91406  98052623.10206
        40.800  
  21334387.82007 113964378.72107        44.700    21334387.39507  21334391.18806
  88638993.02706        39.600    21334391.90606                                
                
  20259358.36708 106463773.04208        46.500                                  
  82958723.97649        41.800    20259363.76649                                
                
  21270400.40606 113782346.70506        38.100    21270398.65605  21270403.70307
  88497343.01907        41.100    21270403.14507                                
                
  24013244.33605 126190434.87605        36.800                    24013256.52005
  98330233.35546        20.100    24013256.22346  24013256.60507  94233138.15907
        41.500  
  19498125.85209 104118927.46609        53.200    19498125.25009  19498128.18809
  80981401.74909        50.200    19498128.59409                                
                
  25182111.77303 132332923.91403        32.500                                  
 103116553.16544        14.800    25182120.44144                                
                
  22703048.21907 121488604.22107        44.400    22703046.91807  22703053.66006
  94491148.05206        39.100    22703052.96106                                
                
  20307101.75809 106714618.34009        49.100                    20307111.68009
  83154243.81849        44.200    20307111.96549  20307110.13309  79689471.45809
        54.400  
  21601421.47709 113516268.43509        48.200                    21601430.84408
  88454262.45749        39.500    21601430.56649  21601430.04709  84768670.69809
        50.500  
  22007558.18008 117312680.52308        46.900    22007557.28108  22007564.19505
  91243217.54505        35.300    22007564.49205                                
                
  24021920.27305 126236120.72805        36.400                                  
  98365767.48245        19.300    24021926.74645                                
                
  24250041.18005 127434834.66605        35.700                                  
  99299908.53945        19.600    24250048.45745                                
                
 19  6  7  4  1  5.0000000  0 17G 7R20G18G 8G27R16G11R19G 9R 9G16R21  .000000000
                                G 1G30R10G22G28
  20244336.50009 106384939.75709        50.400                    20244342.80509
  82897218.95349        44.200    20244342.91849                                
                
  19559552.96908 104593748.37608        47.000    19559552.79708  19559558.57409
  81350713.62209        49.100    19559557.87109                                
                
  20342541.55509 106900807.78309        50.000                                  
  83299343.10549        42.600    20342548.82849                                
                
  22325990.24208 117323936.57608        45.500                    22325999.81607
  91421209.55849        35.400    22325999.46149  22325998.48409  87611987.84509
        48.800  
  24989132.71904 131318888.74604        34.700                    24989143.65206
 102326297.68146        20.900    24989144.14846  24989142.59006  98062687.75106
        39.400  
  21336757.72707 113977037.11207        43.900    21336757.05507  21336759.85907
  88648838.41806        40.000    21336761.96506                                
                
  20259456.68808 106464290.37908        46.600                                  
  82959127.09549        41.900    20259462.25449                                
                
  21273604.45306 113799487.60706        38.100    21273602.92205  21273607.84807
  88510674.82706        40.900    21273607.51206                                
                
  24015272.01605 126201091.73305        35.300                    24015283.77005
  98338537.37646        20.400    24015283.72346  24015284.91407  94241096.17907
        41.800  
  19496731.89109 104111481.12209        53.200    19496730.92209  19496733.66809
  80975610.14209        49.500    19496734.04709                                
                
  25183930.33603                        32.600                                  
                        16.900    25183939.53545                                
                
  22700051.89107 121472577.58007        44.500    22700051.60207  22700058.56606
  94478682.89106        39.400    22700057.94106                                
                
  20305878.72709 106708190.83609        49.400                    20305888.66409
  83149235.37349        43.600    20305888.93849  20305887.00409  79684671.69909
        54.100  
  21599372.63309 113505501.42609        48.100                    21599381.68408
  88445872.60249        39.200    21599381.67649  21599381.17209  84760630.42109
        50.600  
  22004111.90608 117294308.80808        46.500    22004110.83608  22004117.26205
  91228928.44105        35.900    22004118.15605                                
                
  24020146.13305 126226800.46805        36.700                                  
  98358504.96146        21.800    24020153.37946                                
                
  24248277.30505 127425570.22505        35.400                                  
  99292689.48645        19.000    24248285.23845                                
                
 19  6  7  4  1 10.0000000  0 17G 7R20G18G 8G27R16G11R19G 9R 9G16R21  .000000000
                                G 1G30R10G22G28
  20244004.67209 106383196.39909        50.500                    20244010.98809
  82895860.49049        43.800    20244011.08249                                
                
  19559469.84408 104593302.70708        47.300    19559469.36708  19559474.98409
  81350366.98809        48.600    19559474.62509                                
                
  20343022.18809 106903333.90309        49.400                                  
  83301311.51049        42.400    20343029.59049                                
                
  22328051.03908 117334768.11308        45.400                    22328060.63707
  91429649.71849        35.400    22328060.70749  22328059.53909  87620076.32009
        48.500  
  24991697.51605 131332362.76105        36.100                    24991707.71906
 102336796.90445        19.600    24991708.29345  24991705.52006  98072749.52206
        39.300  
  21339129.67207 113989709.14007        44.300    21339129.32007  21339132.49607
  88658694.43106        39.900    21339134.04306                                
                
  20259557.64108 106464821.57608        46.900                                  
  82959541.01149        41.700    20259563.46549                                
                
  21276810.17206 113816634.30806        38.300    21276808.49205  21276812.03107
  88524011.14406        40.600    21276812.91806                                
                
  24017299.85905 126211747.13605        36.300                    24017312.44106
  98346840.29446        20.400    24017312.09046  24017312.67607  94249053.14107
        42.800  
  19495339.53109 104104049.44609        52.700    19495339.10909  19495342.28109
  80969829.94909        50.000    19495342.34009                                
                
  25185749.01603 132352043.44703        33.100                                  
 103131451.37645        16.300    25185759.27345                                
                
  22697061.09407 121456561.79907        44.300    22697058.37907  22697065.50806
  94466226.15506        40.200    22697065.38306                                
                
  20304658.57809 106701779.85409        49.200                    20304668.68409
  83144239.80549        43.800    20304668.86349  20304667.03109  79679884.28009
        54.200  
  21597326.24209 113494746.42609        48.300                    21597335.35208
  88437492.08649        39.200    21597334.97749  21597334.64109  84752599.09909
        50.800  
  22000665.61708 117275939.33308        46.400    22000664.84808  22000671.89105
  91214641.06505        35.800    22000671.91005                                
                
  24018373.36705 126217480.55805        37.100                                  
  98351242.70746        20.400    24018380.50846                                
                
  24246513.82805 127416302.32505        35.700                                  
  99285467.75345        19.300    24246521.37945                                
                
 19  6  7  4  1 15.0000000  0 17G 7R20G18G 8G27R16G11R19G 9R 9G16R21  .000000000
                                G 1G30R10G22G28
  20243676.03909 106381469.79609        51.300                    20243682.50409
  82894515.07549        44.100    20243682.53949                                
                
  19559390.04708 104592875.63608        47.900    19559389.53908  19559395.48809
  81350034.81909        48.400    19559394.66809                                
                
  20343506.15609 106905877.41209        50.000                                  
  83303293.46349        41.600    20343513.57849                                
                
  22330112.08608 117345599.93908        45.500                    22330122.34007
  91438090.09849        34.900    22330121.80149  22330120.95309  87628165.02509
        48.600  
  24994260.32805 131345833.09005        35.800                    24994271.94106
 102347293.26246        20.600    24994271.53546  24994269.10506  98082808.53306
        38.700  
  21341504.14807 114002395.08507        44.200    21341503.78907  21341507.27007
  88668561.25306        39.700    21341508.92206                                
                
  20259661.79708 106465366.77408        46.800                                  
  82959965.83849        41.900    20259667.15249                                
                
  21280016.33605 113833786.72905        37.900    21280014.80105  21280019.30107
  88537351.91207        41.200    21280019.33207                                
                
  24019327.14805 126222401.22405        35.700                    24019338.98806
  98355142.15246        20.400    24019339.82846  24019340.59407  94257009.11407
        43.900  
  19493950.78909 104096632.47209        52.500    19493950.16009  19493953.00809
  80964061.19609        49.700    19493953.43409                                
                
  25187570.67204 132361608.00904        34.000                                  
 103138904.27745        15.600    25187579.64845                                
                
  22694069.40607 121440556.91907        44.100    22694067.72307  22694074.48006
  94453777.93506        40.000    22694074.67206                                
                
  20303441.79709 106695385.53009        49.300                    20303451.91409
  83139257.21749        43.900    20303452.08649  20303450.27009  79675109.30409
        54.300  
  21595281.64809 113484003.59709        48.500                    21595290.86708
  88429121.04149        39.000    21595290.60949  21595290.25009  84744576.84709
        50.700  
  21997221.03108 117257572.24008        47.000    21997219.27708  21997227.00805
  91200355.55305        35.800    21997226.25805                                
                
  24016599.49205 126208161.19205        36.400                                  
  98343980.84846        20.900    24016606.91846                                
                
  24244750.14105 127407030.99005        36.300                                  
  99278243.33545        18.600    24244756.77745                                
                
 19  6  7  4  1 20.0000000  0 17G 7R20G18G 8G27R16G11R19G 9R 9G16R21  .000000000
                                G 1G30R10G22G28
  20243350.63309 106379759.86209        50.900                    20243357.12109
  82893182.65449        43.900    20243357.05949                                
                
  19559313.54708 104592466.92108        47.300    19559313.33208  19559318.85909
  81349716.93409        49.000    19559318.27009                                
                
  20343993.40609 106908438.25209        49.200                                  
  83305288.92449        41.900    20344000.89849                                
                
  22332173.89808 117356432.02908        45.700                    22332183.48807
  91446530.68649        35.700    22332183.11749  22332182.16409  87636253.90909
        48.800  
  24996823.39805 131359299.57905        36.900                    24996834.21906
 102357786.61745        19.600    24996834.16045  24996832.22306  98092864.63206
        38.700  
  21343881.60207 114015094.68407        44.100    21343881.36707  21343884.52307
  88678438.70106        39.600    21343886.25006                                
                
  20259768.11708 106465925.82108        46.700                                  
  82960401.45349        41.600    20259773.48849                                
                
  21283224.07006 113850945.00606        38.300    21283222.63305  21283227.36707
  88550697.23406        40.200    21283226.90206                                
                
  24021353.18805 126233053.94905        35.900                    24021367.28106
  98363442.94246        22.000    24021366.90246  24021367.95307  94264964.03707
        43.900  
  19492564.10909 104089230.27409        52.400    19492563.84409  19492566.99609
  80958303.92809        50.100    19492567.22709                                
                
  25189391.33603 132371175.75203        32.300                                  
 103146359.66945        17.800    25189400.09845                                
                
  22691080.99207 121424562.97807        44.900    22691079.16407  22691085.89507
  94441338.18706        40.600    22691085.99606                                
                
  20302228.47709 106689007.77009        49.300                    20302238.27009
  83134287.53549        43.900    20302238.54349  20302236.53909  79670346.69509
        54.200  
  21593240.05508 113473272.84808        47.900                    21593249.02308
  88420759.42449        38.900    21593248.68449  21593248.40609  84736563.62609
        50.600  
  21993774.75808 117239207.42908        46.000    21993773.88308  21993781.36705
  91186071.80605        35.400    21993780.97705                                
                
  24014825.71905 126198842.22205        37.200                                  
  98336719.31646        21.700    24014833.49646                                
                
  24242984.66405 127397756.23405        35.700                                  
  99271016.25945        18.600    24242992.37545                                
                
 19  6  7  4  1 25.0000000  0 17G 7R20G18G 8G27R16G11R19G 9R 9G16R21  .000000000
                                G 1G30R10G22G28
  20243028.31309 106378066.63309        50.600                    20243035.06609
  82891863.25149        43.900    20243034.77749                                
                
  19559240.39108 104592076.76408        47.600    19559240.32408  19559246.13309
  81349413.48209        48.900    19559245.37109                                
                
  20344484.18809 106911016.46809        49.100                                  
  83307297.91849        42.000    20344491.46149                                
                
  22334235.13308 117367264.40708        45.400                    22334244.99207
  91454971.49049        35.200    22334244.43049  22334243.49209  87644343.02209
        48.600  
  24999385.51605 131372762.28205        36.000                    24999396.05506
 102368277.04845        19.000    24999395.81645  24999394.37906  98102917.99206
        40.000  
  21346261.36707 114027807.95407        44.300    21346261.52307  21346264.50007
